{
"type": "FeatureCollection",
"name": "G",
"crs": { "type": "name", "properties": { "name": "urn:ogc:def:crs:OGC:1.3:CRS84" } },
"features": [
{ "type": "Feature", "properties": { "Name": "PHILLIP'S GROCERY & DELI" }, "geometry": { "type": "Point", "coordinates": [ -84.50757, 38.03817 ] } },
{ "type": "Feature", "properties": { "Name": "GEORGE'S DELI AND GROCERY" }, "geometry": { "type": "Point", "coordinates": [ -84.49561, 38.04762 ] } },
{ "type": "Feature", "properties": { "Name": "TARGET STORES T-366" }, "geometry": { "type": "Point", "coordinates": [ -84.52533, 37.99267 ] } },
{ "type": "Feature", "properties": { "Name": "KROGER L-784" }, "geometry": { "type": "Point", "coordinates": [ -84.49297, 38.03066 ] } },
{ "type": "Feature", "properties": { "Name": "KROGER L-352" }, "geometry": { "type": "Point", "coordinates": [ -84.52173, 38.00649 ] } },
{ "type": "Feature", "properties": { "Name": "KROGER L-347" }, "geometry": { "type": "Point", "coordinates": [ -84.49864, 37.97043 ] } },
{ "type": "Feature", "properties": { "Name": "KROGER L-361" }, "geometry": { "type": "Point", "coordinates": [ -84.55084, 38.03734 ] } },
{ "type": "Feature", "properties": { "Name": "DONG YANG MARKET" }, "geometry": { "type": "Point", "coordinates": [ -84.54575, 38.00293 ] } },
{ "type": "Feature", "properties": { "Name": "HANNEH'S GROCERY & DELI" }, "geometry": { "type": "Point", "coordinates": [ -84.47655, 38.04776 ] } },
{ "type": "Feature", "properties": { "Name": "WILDCAT MARKET" }, "geometry": { "type": "Point", "coordinates": [ -84.49748, 38.03091 ] } },
{ "type": "Feature", "properties": { "Name": "H & M MARKET" }, "geometry": { "type": "Point", "coordinates": [ -84.47497, 38.06146 ] } },
{ "type": "Feature", "properties": { "Name": "KROGER L-407" }, "geometry": { "type": "Point", "coordinates": [ -84.44433, 38.00344 ] } },
{ "type": "Feature", "properties": { "Name": "SAVE A LOT - SOUTHLAND" }, "geometry": { "type": "Point", "coordinates": [ -84.52705, 38.01758 ] } },
{ "type": "Feature", "properties": { "Name": "WILSON'S GROCERY, MEAT & PROD." }, "geometry": { "type": "Point", "coordinates": [ -84.47717, 38.03506 ] } },
{ "type": "Feature", "properties": { "Name": "PDQ DELI AND GROCERY" }, "geometry": { "type": "Point", "coordinates": [ -84.46087, 38.05525 ] } },
{ "type": "Feature", "properties": { "Name": "F & D MARKET" }, "geometry": { "type": "Point", "coordinates": [ -84.48311, 38.05078 ] } },
{ "type": "Feature", "properties": { "Name": "KROGER L-371" }, "geometry": { "type": "Point", "coordinates": [ -84.55002, 37.9791 ] } },
{ "type": "Feature", "properties": { "Name": "CRITCHFIELD MEATS" }, "geometry": { "type": "Point", "coordinates": [ -84.5164, 38.00702 ] } },
{ "type": "Feature", "properties": { "Name": "WALMART #4607" }, "geometry": { "type": "Point", "coordinates": [ -84.57191, 38.00458 ] } },
{ "type": "Feature", "properties": { "Name": "KROGER L-721" }, "geometry": { "type": "Point", "coordinates": [ -84.47952, 37.9619 ] } },
{ "type": "Feature", "properties": { "Name": "NEIGHBORHOOD GROCERY" }, "geometry": { "type": "Point", "coordinates": [ -84.48143, 38.05318 ] } },
{ "type": "Feature", "properties": { "Name": "SAM'S CLUB #8188" }, "geometry": { "type": "Point", "coordinates": [ -84.45051, 38.03712 ] } },
{ "type": "Feature", "properties": { "Name": "KROGER L-359" }, "geometry": { "type": "Point", "coordinates": [ -84.46127, 38.05827 ] } },
{ "type": "Feature", "properties": { "Name": "PREFERIDA SUPERMARKET" }, "geometry": { "type": "Point", "coordinates": [ -84.55296, 38.03687 ] } },
{ "type": "Feature", "properties": { "Name": "LIQUOR BARN @ CORNER DELI" }, "geometry": { "type": "Point", "coordinates": [ -84.55604, 38.01579 ] } },
{ "type": "Feature", "properties": { "Name": "TARGET STORE 1094" }, "geometry": { "type": "Point", "coordinates": [ -84.4148, 38.02245 ] } },
{ "type": "Feature", "properties": { "Name": "LA GUADALUPANA" }, "geometry": { "type": "Point", "coordinates": [ -84.45296, 38.04675 ] } },
{ "type": "Feature", "properties": { "Name": "TRADER JOE'S - STORE 627" }, "geometry": { "type": "Point", "coordinates": [ -84.51836, 38.00493 ] } },
{ "type": "Feature", "properties": { "Name": "MEIJER GREAT LAKES LP #161" }, "geometry": { "type": "Point", "coordinates": [ -84.42218, 38.01868 ] } },
{ "type": "Feature", "properties": { "Name": "FARM MARKET" }, "geometry": { "type": "Point", "coordinates": [ -84.45367, 38.03585 ] } },
{ "type": "Feature", "properties": { "Name": "WALMART #2628" }, "geometry": { "type": "Point", "coordinates": [ -84.5309, 37.9794 ] } },
{ "type": "Feature", "properties": { "Name": "SUPER MERCADA AQUASCALIENTES 1" }, "geometry": { "type": "Point", "coordinates": [ -84.55146, 38.04806 ] } },
{ "type": "Feature", "properties": { "Name": "GOOD FOODS MARKET & CAFE" }, "geometry": { "type": "Point", "coordinates": [ -84.52697, 38.01999 ] } },
{ "type": "Feature", "properties": { "Name": "MEIJER #184" }, "geometry": { "type": "Point", "coordinates": [ -84.53115, 37.99621 ] } },
{ "type": "Feature", "properties": { "Name": "WALMART #2783" }, "geometry": { "type": "Point", "coordinates": [ -84.48048, 38.07017 ] } },
{ "type": "Feature", "properties": { "Name": "KROGER L-737" }, "geometry": { "type": "Point", "coordinates": [ -84.47889, 37.9968 ] } },
{ "type": "Feature", "properties": { "Name": "AFRICA & CARIBBEAN IMPORTS, LLC" }, "geometry": { "type": "Point", "coordinates": [ -84.47157, 38.04218 ] } },
{ "type": "Feature", "properties": { "Name": "GORDON FOOD SERVICE STORE" }, "geometry": { "type": "Point", "coordinates": [ -84.41772, 38.01611 ] } },
{ "type": "Feature", "properties": { "Name": "ALI BABA GROCERY STORE" }, "geometry": { "type": "Point", "coordinates": [ -84.52759, 38.01833 ] } },
{ "type": "Feature", "properties": { "Name": "LIQUOR BARN" }, "geometry": { "type": "Point", "coordinates": [ -84.41965, 38.01418 ] } },
{ "type": "Feature", "properties": { "Name": "SUPER MERCADO AGUASCALIENTES #5" }, "geometry": { "type": "Point", "coordinates": [ -84.5164, 38.00702 ] } },
{ "type": "Feature", "properties": { "Name": "AYAME JAPANESE & GOURMET MARKET" }, "geometry": { "type": "Point", "coordinates": [ -84.45168, 38.01171 ] } },
{ "type": "Feature", "properties": { "Name": "FRESH MARKET, THE" }, "geometry": { "type": "Point", "coordinates": [ -84.49641, 37.99438 ] } },
{ "type": "Feature", "properties": { "Name": "WALMART MARKET #4413" }, "geometry": { "type": "Point", "coordinates": [ -84.50077, 37.96674 ] } },
{ "type": "Feature", "properties": { "Name": "SUPER MERCADA AQUASCALIENTES-4" }, "geometry": { "type": "Point", "coordinates": [ -84.45441, 38.01819 ] } },
{ "type": "Feature", "properties": { "Name": "WALMART  #3894" }, "geometry": { "type": "Point", "coordinates": [ -84.42224, 38.0378 ] } },
{ "type": "Feature", "properties": { "Name": "LEXINGTON SEAFOOD MARKET" }, "geometry": { "type": "Point", "coordinates": [ -84.48983, 38.02848 ] } },
{ "type": "Feature", "properties": { "Name": "SUPER MERCADO AGUASCALIENTES" }, "geometry": { "type": "Point", "coordinates": [ -84.47756, 38.07247 ] } },
{ "type": "Feature", "properties": { "Name": "KROGER L-768" }, "geometry": { "type": "Point", "coordinates": [ -84.52707, 38.06548 ] } },
{ "type": "Feature", "properties": { "Name": "KROGER L-767" }, "geometry": { "type": "Point", "coordinates": [ -84.55927, 38.02282 ] } },
{ "type": "Feature", "properties": { "Name": "LA PRINCESA SUPER MARCADO" }, "geometry": { "type": "Point", "coordinates": [ -84.54853, 38.04847 ] } },
{ "type": "Feature", "properties": { "Name": "COSTCO WHOLESALE #1156" }, "geometry": { "type": "Point", "coordinates": [ -84.41041, 38.02417 ] } },
{ "type": "Feature", "properties": { "Name": "KAEDE MARKET" }, "geometry": { "type": "Point", "coordinates": [ -84.5844, 37.99676 ] } },
{ "type": "Feature", "properties": { "Name": "NEPMART GROCERY" }, "geometry": { "type": "Point", "coordinates": [ -84.45558, 38.01638 ] } },
{ "type": "Feature", "properties": { "Name": "SUPERMERCADO LAS NORTENAS" }, "geometry": { "type": "Point", "coordinates": [ -84.46911, 38.06326 ] } },
{ "type": "Feature", "properties": { "Name": "WHOLE FOOD MARKET" }, "geometry": { "type": "Point", "coordinates": [ -84.52798, 37.97823 ] } },
{ "type": "Feature", "properties": { "Name": "Aldi" }, "geometry": { "type": "Point", "coordinates": [ -84.48319, 38.07388 ] } },
{ "type": "Feature", "properties": { "Name": "Aldi" }, "geometry": { "type": "Point", "coordinates": [ -84.52851, 37.98505 ] } },
{ "type": "Feature", "properties": { "Name": "Save-a-Lot" }, "geometry": { "type": "Point", "coordinates": [ -84.54816, 38.04794 ] } },
{ "type": "Feature", "properties": { "Name": "Our Market" }, "geometry": { "type": "Point", "coordinates": [ -84.4867, 38.05097 ] } },
{ "type": "Feature", "properties": { "Name": "Kroger" }, "geometry": { "type": "Point", "coordinates": [ -84.58953, 37.98433 ] } },
{ "type": "Feature", "properties": { "Name": "Wildcat Pantry" }, "geometry": { "type": "Point", "coordinates": [ -84.5019, 38.03127 ] } },
{ "type": "Feature", "properties": { "Name": "Yu Yu Asian Market" }, "geometry": { "type": "Point", "coordinates": [ -84.51989, 38.03109 ] } }
]
}
