{
"type": "FeatureCollection",
"features": [
{ "type": "Feature", "properties": { "Name": "CHARLIE'S SEAFOOD" }, "geometry": { "type": "Point", "coordinates": [ -84.46934, 38.04157 ] } },
{ "type": "Feature", "properties": { "Name": "WILDCAT CAFE @ UK MEDICAL CENTER" }, "geometry": { "type": "Point", "coordinates": [ -84.5074, 38.03117 ] } },
{ "type": "Feature", "properties": { "Name": "DUNKIN DONUTS" }, "geometry": { "type": "Point", "coordinates": [ -84.46474, 38.05928 ] } },
{ "type": "Feature", "properties": { "Name": "ARBY'S #1128" }, "geometry": { "type": "Point", "coordinates": [ -84.48155, 38.07198 ] } },
{ "type": "Feature", "properties": { "Name": "ARBY'S #1339" }, "geometry": { "type": "Point", "coordinates": [ -84.50727, 38.03937 ] } },
{ "type": "Feature", "properties": { "Name": "ARBY'S OF LEXINGTON #1952" }, "geometry": { "type": "Point", "coordinates": [ -84.42297, 38.04225 ] } },
{ "type": "Feature", "properties": { "Name": "ARBY'S #1092" }, "geometry": { "type": "Point", "coordinates": [ -84.45381, 38.01013 ] } },
{ "type": "Feature", "properties": { "Name": "ARBY'S #784" }, "geometry": { "type": "Point", "coordinates": [ -84.52089, 38.03471 ] } },
{ "type": "Feature", "properties": { "Name": "ARBY'S #1299" }, "geometry": { "type": "Point", "coordinates": [ -84.52423, 37.99168 ] } },
{ "type": "Feature", "properties": { "Name": "ARBY'S #159" }, "geometry": { "type": "Point", "coordinates": [ -84.5207, 38.01271 ] } },
{ "type": "Feature", "properties": { "Name": "ARBY'S RESTAURANT" }, "geometry": { "type": "Point", "coordinates": [ -84.49596, 37.99374 ] } },
{ "type": "Feature", "properties": { "Name": "AUSTIN CITY SALOON" }, "geometry": { "type": "Point", "coordinates": [ -84.45558, 38.01638 ] } },
{ "type": "Feature", "properties": { "Name": "BASKIN ROBBINS" }, "geometry": { "type": "Point", "coordinates": [ -84.49651, 37.99477 ] } },
{ "type": "Feature", "properties": { "Name": "GAY BREWER JR CRS @ PICADOME" }, "geometry": { "type": "Point", "coordinates": [ -84.52474, 38.03615 ] } },
{ "type": "Feature", "properties": { "Name": "TACO BELL #23279" }, "geometry": { "type": "Point", "coordinates": [ -84.44834, 38.00447 ] } },
{ "type": "Feature", "properties": { "Name": "BURGER KING #1007" }, "geometry": { "type": "Point", "coordinates": [ -84.51841, 38.00847 ] } },
{ "type": "Feature", "properties": { "Name": "BURGER KING #1923" }, "geometry": { "type": "Point", "coordinates": [ -84.47805, 38.07199 ] } },
{ "type": "Feature", "properties": { "Name": "CAPTAIN D'S" }, "geometry": { "type": "Point", "coordinates": [ -84.47391, 38.06921 ] } },
{ "type": "Feature", "properties": { "Name": "CAPTAIN D'S" }, "geometry": { "type": "Point", "coordinates": [ -84.52019, 37.99039 ] } },
{ "type": "Feature", "properties": { "Name": "CAPTAIN D'S" }, "geometry": { "type": "Point", "coordinates": [ -84.44978, 38.00668 ] } },
{ "type": "Feature", "properties": { "Name": "LEXINGTON TENNIS CLUB SNACKBAR" }, "geometry": { "type": "Point", "coordinates": [ -84.50067, 37.98484 ] } },
{ "type": "Feature", "properties": { "Name": "CHICK-FIL-A  - FAYETTE MALL" }, "geometry": { "type": "Point", "coordinates": [ -84.52715, 37.98905 ] } },
{ "type": "Feature", "properties": { "Name": "JIMMY JOHN'S" }, "geometry": { "type": "Point", "coordinates": [ -84.52002, 38.06387 ] } },
{ "type": "Feature", "properties": { "Name": "DAIRY QUEEN" }, "geometry": { "type": "Point", "coordinates": [ -84.5161, 37.98764 ] } },
{ "type": "Feature", "properties": { "Name": "DOMINO'S PIZZA" }, "geometry": { "type": "Point", "coordinates": [ -84.54552, 38.0025 ] } },
{ "type": "Feature", "properties": { "Name": "DOMINO'S PIZZA" }, "geometry": { "type": "Point", "coordinates": [ -84.49098, 38.03026 ] } },
{ "type": "Feature", "properties": { "Name": "DONUT DAYS" }, "geometry": { "type": "Point", "coordinates": [ -84.51857, 38.01228 ] } },
{ "type": "Feature", "properties": { "Name": "DAIRY QUEEN" }, "geometry": { "type": "Point", "coordinates": [ -84.45414, 38.02237 ] } },
{ "type": "Feature", "properties": { "Name": "LEE'S FAM. RECI. CHICKEN #7470" }, "geometry": { "type": "Point", "coordinates": [ -84.4835, 38.07133 ] } },
{ "type": "Feature", "properties": { "Name": "LEE'S FAM. RECI. CHICKEN #7472" }, "geometry": { "type": "Point", "coordinates": [ -84.45129, 38.00462 ] } },
{ "type": "Feature", "properties": { "Name": "TACO BELL #29739" }, "geometry": { "type": "Point", "coordinates": [ -84.55365, 38.04696 ] } },
{ "type": "Feature", "properties": { "Name": "FRISCH'S #148" }, "geometry": { "type": "Point", "coordinates": [ -84.53349, 38.0279 ] } },
{ "type": "Feature", "properties": { "Name": "FAZOLI'S #1605" }, "geometry": { "type": "Point", "coordinates": [ -84.46487, 38.01898 ] } },
{ "type": "Feature", "properties": { "Name": "HARDEE'S" }, "geometry": { "type": "Point", "coordinates": [ -84.45138, 38.00556 ] } },
{ "type": "Feature", "properties": { "Name": "HARDEE'S" }, "geometry": { "type": "Point", "coordinates": [ -84.4621, 38.04278 ] } },
{ "type": "Feature", "properties": { "Name": "QDOBA MEXICAN GRILL #2086" }, "geometry": { "type": "Point", "coordinates": [ -84.49977, 38.03856 ] } },
{ "type": "Feature", "properties": { "Name": "HARDEE'S" }, "geometry": { "type": "Point", "coordinates": [ -84.47352, 38.06777 ] } },
{ "type": "Feature", "properties": { "Name": "PETE'S WOK" }, "geometry": { "type": "Point", "coordinates": [ -84.52283, 38.03342 ] } },
{ "type": "Feature", "properties": { "Name": "BURGER & SHAKE" }, "geometry": { "type": "Point", "coordinates": [ -84.46647, 38.0622 ] } },
{ "type": "Feature", "properties": { "Name": "IDLE HOUR SNACK BAR" }, "geometry": { "type": "Point", "coordinates": [ -84.47345, 38.02593 ] } },
{ "type": "Feature", "properties": { "Name": "STAND 213" }, "geometry": { "type": "Point", "coordinates": [ -84.60624, 38.04695 ] } },
{ "type": "Feature", "properties": { "Name": "KENTUCKY FRIED CHICKEN" }, "geometry": { "type": "Point", "coordinates": [ -84.48249, 38.07173 ] } },
{ "type": "Feature", "properties": { "Name": "KENTUCKY FRIED CHICKEN" }, "geometry": { "type": "Point", "coordinates": [ -84.52003, 38.00329 ] } },
{ "type": "Feature", "properties": { "Name": "KENTUCKY FRIED CHICKEN" }, "geometry": { "type": "Point", "coordinates": [ -84.45035, 38.00469 ] } },
{ "type": "Feature", "properties": { "Name": "LAKESIDE GOLF COURSE SNACK BAR" }, "geometry": { "type": "Point", "coordinates": [ -84.436, 37.99259 ] } },
{ "type": "Feature", "properties": { "Name": "LEE'S FAM. RECI. CHICKEN #7474" }, "geometry": { "type": "Point", "coordinates": [ -84.52371, 38.04939 ] } },
{ "type": "Feature", "properties": { "Name": "BLUEGRASS FOODS, INC." }, "geometry": { "type": "Point", "coordinates": [ -84.5387, 38.02939 ] } },
{ "type": "Feature", "properties": { "Name": "BLUE CONCOURSE NO. 4" }, "geometry": { "type": "Point", "coordinates": [ -84.502, 38.04945 ] } },
{ "type": "Feature", "properties": { "Name": "KENTUCKY CATTLEMEN" }, "geometry": { "type": "Point", "coordinates": [ -84.502, 38.04945 ] } },
{ "type": "Feature", "properties": { "Name": "MAIN EXPOSITION (EAST)" }, "geometry": { "type": "Point", "coordinates": [ -84.502, 38.04945 ] } },
{ "type": "Feature", "properties": { "Name": "LEX CNTR CORP - MAIN COMMISSARY" }, "geometry": { "type": "Point", "coordinates": [ -84.502, 38.04945 ] } },
{ "type": "Feature", "properties": { "Name": "GOLD STAR CHILI" }, "geometry": { "type": "Point", "coordinates": [ -84.502, 38.04945 ] } },
{ "type": "Feature", "properties": { "Name": "LEXINGTON ICE CENTER" }, "geometry": { "type": "Point", "coordinates": [ -84.45644, 37.99745 ] } },
{ "type": "Feature", "properties": { "Name": "LONG JOHN SILVER'S #12" }, "geometry": { "type": "Point", "coordinates": [ -84.54865, 38.04737 ] } },
{ "type": "Feature", "properties": { "Name": "NOODLES AND COMPANY" }, "geometry": { "type": "Point", "coordinates": [ -84.51966, 38.00167 ] } },
{ "type": "Feature", "properties": { "Name": "A&W RESTAURANT" }, "geometry": { "type": "Point", "coordinates": [ -84.48634, 38.03636 ] } },
{ "type": "Feature", "properties": { "Name": "MCDONALD'S" }, "geometry": { "type": "Point", "coordinates": [ -84.50309, 38.04239 ] } },
{ "type": "Feature", "properties": { "Name": "MCDONALD'S RESTAURANT #989" }, "geometry": { "type": "Point", "coordinates": [ -84.55314, 38.04735 ] } },
{ "type": "Feature", "properties": { "Name": "MCDONALD'S RESTAURANT #1231" }, "geometry": { "type": "Point", "coordinates": [ -84.5207, 38.00116 ] } },
{ "type": "Feature", "properties": { "Name": "MCDONALD'S" }, "geometry": { "type": "Point", "coordinates": [ -84.47801, 38.07088 ] } },
{ "type": "Feature", "properties": { "Name": "MCDONALD'S" }, "geometry": { "type": "Point", "coordinates": [ -84.42414, 38.0425 ] } },
{ "type": "Feature", "properties": { "Name": "MCDONALD'S #6111" }, "geometry": { "type": "Point", "coordinates": [ -84.4542, 38.03401 ] } },
{ "type": "Feature", "properties": { "Name": "MCDONALD'S" }, "geometry": { "type": "Point", "coordinates": [ -84.50006, 37.96951 ] } },
{ "type": "Feature", "properties": { "Name": "ORIGINAL GREAT AMERICAN COOKIES" }, "geometry": { "type": "Point", "coordinates": [ -84.52782, 37.98848 ] } },
{ "type": "Feature", "properties": { "Name": "PARKETTE" }, "geometry": { "type": "Point", "coordinates": [ -84.45331, 38.03118 ] } },
{ "type": "Feature", "properties": { "Name": "SUBWAY" }, "geometry": { "type": "Point", "coordinates": [ -84.49528, 38.03454 ] } },
{ "type": "Feature", "properties": { "Name": "THE WEST INDIES FRIED CHICKEN" }, "geometry": { "type": "Point", "coordinates": [ -84.5497, 38.04736 ] } },
{ "type": "Feature", "properties": { "Name": "RED MILE - WAGERS" }, "geometry": { "type": "Point", "coordinates": [ -84.51957, 38.04321 ] } },
{ "type": "Feature", "properties": { "Name": "SIR PIZZA" }, "geometry": { "type": "Point", "coordinates": [ -84.52121, 37.99055 ] } },
{ "type": "Feature", "properties": { "Name": "PIZZA HUT #2966" }, "geometry": { "type": "Point", "coordinates": [ -84.51965, 38.03175 ] } },
{ "type": "Feature", "properties": { "Name": "SIR PIZZA COMMISSARY" }, "geometry": { "type": "Point", "coordinates": [ -84.45729, 38.00941 ] } },
{ "type": "Feature", "properties": { "Name": "COOKOUT" }, "geometry": { "type": "Point", "coordinates": [ -84.5137, 38.04046 ] } },
{ "type": "Feature", "properties": { "Name": "PAPA JOHN'S PIZZA #88" }, "geometry": { "type": "Point", "coordinates": [ -84.52053, 38.00174 ] } },
{ "type": "Feature", "properties": { "Name": "BASKIN ROBBINS ICE CREAM" }, "geometry": { "type": "Point", "coordinates": [ -84.4466, 38.00437 ] } },
{ "type": "Feature", "properties": { "Name": "TACO TICO" }, "geometry": { "type": "Point", "coordinates": [ -84.48352, 38.07112 ] } },
{ "type": "Feature", "properties": { "Name": "TACO BELL #32414" }, "geometry": { "type": "Point", "coordinates": [ -84.47701, 38.07044 ] } },
{ "type": "Feature", "properties": { "Name": "GREAT BAGEL" }, "geometry": { "type": "Point", "coordinates": [ -84.49553, 38.03439 ] } },
{ "type": "Feature", "properties": { "Name": "WENDY'S" }, "geometry": { "type": "Point", "coordinates": [ -84.55176, 38.03816 ] } },
{ "type": "Feature", "properties": { "Name": "WENDY'S" }, "geometry": { "type": "Point", "coordinates": [ -84.52154, 37.99969 ] } },
{ "type": "Feature", "properties": { "Name": "WENDY'S" }, "geometry": { "type": "Point", "coordinates": [ -84.48325, 38.07204 ] } },
{ "type": "Feature", "properties": { "Name": "WENDY'S" }, "geometry": { "type": "Point", "coordinates": [ -84.45088, 38.00511 ] } },
{ "type": "Feature", "properties": { "Name": "WHITE CASTLE #21" }, "geometry": { "type": "Point", "coordinates": [ -84.46399, 38.05976 ] } },
{ "type": "Feature", "properties": { "Name": "WHITE CASTLE #22" }, "geometry": { "type": "Point", "coordinates": [ -84.51972, 37.99014 ] } },
{ "type": "Feature", "properties": { "Name": "COFFEE TIMES, INC" }, "geometry": { "type": "Point", "coordinates": [ -84.52539, 38.00127 ] } },
{ "type": "Feature", "properties": { "Name": "KENTUCKY FRIED CHICKEN" }, "geometry": { "type": "Point", "coordinates": [ -84.50064, 37.96924 ] } },
{ "type": "Feature", "properties": { "Name": "PANDA EXPRESS #2625" }, "geometry": { "type": "Point", "coordinates": [ -84.4604, 38.01522 ] } },
{ "type": "Feature", "properties": { "Name": "NO BAKED LOUISVILLE, LLC" }, "geometry": { "type": "Point", "coordinates": [ -84.57131, 38.00428 ] } },
{ "type": "Feature", "properties": { "Name": "TACO BELL #22283" }, "geometry": { "type": "Point", "coordinates": [ -84.51888, 38.0067 ] } },
{ "type": "Feature", "properties": { "Name": "SUBWAY  #2819" }, "geometry": { "type": "Point", "coordinates": [ -84.52142, 38.03226 ] } },
{ "type": "Feature", "properties": { "Name": "INSOMNIA COOKIES" }, "geometry": { "type": "Point", "coordinates": [ -84.50281, 38.04321 ] } },
{ "type": "Feature", "properties": { "Name": "NORTH LIME COFFEE & DONUTS" }, "geometry": { "type": "Point", "coordinates": [ -84.54543, 38.00269 ] } },
{ "type": "Feature", "properties": { "Name": "RALLY'S #23" }, "geometry": { "type": "Point", "coordinates": [ -84.44778, 38.00361 ] } },
{ "type": "Feature", "properties": { "Name": "INDI'S FAST FOOD" }, "geometry": { "type": "Point", "coordinates": [ -84.48692, 38.05756 ] } },
{ "type": "Feature", "properties": { "Name": "WENDY'S RESTAURANT" }, "geometry": { "type": "Point", "coordinates": [ -84.42625, 38.04207 ] } },
{ "type": "Feature", "properties": { "Name": "TACO BELL #31595" }, "geometry": { "type": "Point", "coordinates": [ -84.53372, 38.02679 ] } },
{ "type": "Feature", "properties": { "Name": "KEARNEY HILLS GOLF CONCESSION STAND" }, "geometry": { "type": "Point", "coordinates": [ -84.5365, 38.12401 ] } },
{ "type": "Feature", "properties": { "Name": "GOLD STAR CHILI" }, "geometry": { "type": "Point", "coordinates": [ -84.52842, 37.98844 ] } },
{ "type": "Feature", "properties": { "Name": "RALLY'S # 25" }, "geometry": { "type": "Point", "coordinates": [ -84.5011, 38.06061 ] } },
{ "type": "Feature", "properties": { "Name": "MCDONALD'S RESTAURANT" }, "geometry": { "type": "Point", "coordinates": [ -84.57303, 38.0054 ] } },
{ "type": "Feature", "properties": { "Name": "MOE'S SOUTHWEST GRILL" }, "geometry": { "type": "Point", "coordinates": [ -84.52782, 37.98848 ] } },
{ "type": "Feature", "properties": { "Name": "ASIAN TOO EXPRESS" }, "geometry": { "type": "Point", "coordinates": [ -84.52782, 37.98848 ] } },
{ "type": "Feature", "properties": { "Name": "SUBWAY" }, "geometry": { "type": "Point", "coordinates": [ -84.52782, 37.98848 ] } },
{ "type": "Feature", "properties": { "Name": "A&W BURGERS, CHICKEN, FLOATS" }, "geometry": { "type": "Point", "coordinates": [ -84.52782, 37.98848 ] } },
{ "type": "Feature", "properties": { "Name": "FAZOLI'S - #1607" }, "geometry": { "type": "Point", "coordinates": [ -84.57061, 38.00265 ] } },
{ "type": "Feature", "properties": { "Name": "PAPA JOHN'S PIZZA #54" }, "geometry": { "type": "Point", "coordinates": [ -84.57019, 38.00288 ] } },
{ "type": "Feature", "properties": { "Name": "LIMESTONE PIZZA" }, "geometry": { "type": "Point", "coordinates": [ -84.50737, 38.03832 ] } },
{ "type": "Feature", "properties": { "Name": "UK BASEBALL CONCESSION STAND" }, "geometry": { "type": "Point", "coordinates": [ -84.49899, 38.0281 ] } },
{ "type": "Feature", "properties": { "Name": "SUBLEX 1 LLC" }, "geometry": { "type": "Point", "coordinates": [ -84.45351, 38.02221 ] } },
{ "type": "Feature", "properties": { "Name": "SUBWAY" }, "geometry": { "type": "Point", "coordinates": [ -84.52086, 38.06464 ] } },
{ "type": "Feature", "properties": { "Name": "PIZZA HUT #2970" }, "geometry": { "type": "Point", "coordinates": [ -84.55048, 37.9811 ] } },
{ "type": "Feature", "properties": { "Name": "TACO BELL #4653" }, "geometry": { "type": "Point", "coordinates": [ -84.45171, 38.03701 ] } },
{ "type": "Feature", "properties": { "Name": "PAPA JOHN'S PIZZA #40" }, "geometry": { "type": "Point", "coordinates": [ -84.44793, 38.00404 ] } },
{ "type": "Feature", "properties": { "Name": "SUBWAY" }, "geometry": { "type": "Point", "coordinates": [ -84.45478, 38.04843 ] } },
{ "type": "Feature", "properties": { "Name": "FAZOLI'S #1624" }, "geometry": { "type": "Point", "coordinates": [ -84.51716, 38.00807 ] } },
{ "type": "Feature", "properties": { "Name": "SUBWAY #7507" }, "geometry": { "type": "Point", "coordinates": [ -84.50062, 37.96756 ] } },
{ "type": "Feature", "properties": { "Name": "SUBWAY" }, "geometry": { "type": "Point", "coordinates": [ -84.4466, 38.00437 ] } },
{ "type": "Feature", "properties": { "Name": "DOMINO'S PIZZA" }, "geometry": { "type": "Point", "coordinates": [ -84.54163, 38.02914 ] } },
{ "type": "Feature", "properties": { "Name": "RAISING CANE'S CHICKEN FINGERS" }, "geometry": { "type": "Point", "coordinates": [ -84.52144, 38.00016 ] } },
{ "type": "Feature", "properties": { "Name": "STEAK EXPRESS" }, "geometry": { "type": "Point", "coordinates": [ -84.51823, 38.01228 ] } },
{ "type": "Feature", "properties": { "Name": "ARBY'S" }, "geometry": { "type": "Point", "coordinates": [ -84.50169, 38.04907 ] } },
{ "type": "Feature", "properties": { "Name": "GIOVANNI'S PIZZA" }, "geometry": { "type": "Point", "coordinates": [ -84.50051, 37.96758 ] } },
{ "type": "Feature", "properties": { "Name": "LITTLE CAESAR'S PIZZA" }, "geometry": { "type": "Point", "coordinates": [ -84.54151, 38.04813 ] } },
{ "type": "Feature", "properties": { "Name": "SIR PIZZA" }, "geometry": { "type": "Point", "coordinates": [ -84.5172, 38.03759 ] } },
{ "type": "Feature", "properties": { "Name": "PARKHILL SUBWAY" }, "geometry": { "type": "Point", "coordinates": [ -84.46132, 37.98465 ] } },
{ "type": "Feature", "properties": { "Name": "ARBY'S - PALOMAR" }, "geometry": { "type": "Point", "coordinates": [ -84.57026, 38.00284 ] } },
{ "type": "Feature", "properties": { "Name": "PENN STATION" }, "geometry": { "type": "Point", "coordinates": [ -84.46579, 38.01977 ] } },
{ "type": "Feature", "properties": { "Name": "PAPA JOHN'S PIZZA #32" }, "geometry": { "type": "Point", "coordinates": [ -84.46283, 38.05992 ] } },
{ "type": "Feature", "properties": { "Name": "RALLY'S #27" }, "geometry": { "type": "Point", "coordinates": [ -84.46892, 38.06479 ] } },
{ "type": "Feature", "properties": { "Name": "BURGER KING #8249" }, "geometry": { "type": "Point", "coordinates": [ -84.50186, 37.96778 ] } },
{ "type": "Feature", "properties": { "Name": "FAZOLI'S #1658" }, "geometry": { "type": "Point", "coordinates": [ -84.50114, 37.96797 ] } },
{ "type": "Feature", "properties": { "Name": "SUNSET STRIPS" }, "geometry": { "type": "Point", "coordinates": [ -84.50169, 38.04907 ] } },
{ "type": "Feature", "properties": { "Name": "BURGER KING #8725" }, "geometry": { "type": "Point", "coordinates": [ -84.54849, 37.99558 ] } },
{ "type": "Feature", "properties": { "Name": "TACO BELL #16531" }, "geometry": { "type": "Point", "coordinates": [ -84.50306, 37.96838 ] } },
{ "type": "Feature", "properties": { "Name": "DONATO'S" }, "geometry": { "type": "Point", "coordinates": [ -84.48504, 38.03522 ] } },
{ "type": "Feature", "properties": { "Name": "THE PRETZEL TWISTER" }, "geometry": { "type": "Point", "coordinates": [ -84.52842, 37.98844 ] } },
{ "type": "Feature", "properties": { "Name": "SONIC 3209" }, "geometry": { "type": "Point", "coordinates": [ -84.51614, 38.03783 ] } },
{ "type": "Feature", "properties": { "Name": "AG NORTH DELI" }, "geometry": { "type": "Point", "coordinates": [ -84.5092, 38.02894 ] } },
{ "type": "Feature", "properties": { "Name": "AMC CLASSIC LEXINGTON 10" }, "geometry": { "type": "Point", "coordinates": [ -84.42408, 38.00631 ] } },
{ "type": "Feature", "properties": { "Name": "SUBWAY" }, "geometry": { "type": "Point", "coordinates": [ -84.49514, 38.00764 ] } },
{ "type": "Feature", "properties": { "Name": "DONATO'S PIZZA - BEAUMONT CTR." }, "geometry": { "type": "Point", "coordinates": [ -84.5551, 38.01649 ] } },
{ "type": "Feature", "properties": { "Name": "SUBWAY #18997" }, "geometry": { "type": "Point", "coordinates": [ -84.55759, 38.01387 ] } },
{ "type": "Feature", "properties": { "Name": "MCDONALD'S" }, "geometry": { "type": "Point", "coordinates": [ -84.48418, 38.10207 ] } },
{ "type": "Feature", "properties": { "Name": "PENN STATION" }, "geometry": { "type": "Point", "coordinates": [ -84.51737, 38.03672 ] } },
{ "type": "Feature", "properties": { "Name": "FIVE GUYS" }, "geometry": { "type": "Point", "coordinates": [ -84.52053, 38.00174 ] } },
{ "type": "Feature", "properties": { "Name": "JET'S PIZZA" }, "geometry": { "type": "Point", "coordinates": [ -84.50064, 37.96742 ] } },
{ "type": "Feature", "properties": { "Name": "FAZOLI'S #1785" }, "geometry": { "type": "Point", "coordinates": [ -84.41889, 38.0185 ] } },
{ "type": "Feature", "properties": { "Name": "PENN STATION" }, "geometry": { "type": "Point", "coordinates": [ -84.5164, 38.00702 ] } },
{ "type": "Feature", "properties": { "Name": "PAPA JOHN'S #29" }, "geometry": { "type": "Point", "coordinates": [ -84.50153, 37.96603 ] } },
{ "type": "Feature", "properties": { "Name": "WENDY'S" }, "geometry": { "type": "Point", "coordinates": [ -84.41611, 38.0191 ] } },
{ "type": "Feature", "properties": { "Name": "STEAK 'N SHAKE" }, "geometry": { "type": "Point", "coordinates": [ -84.4192, 38.01824 ] } },
{ "type": "Feature", "properties": { "Name": "MCDONALD'S" }, "geometry": { "type": "Point", "coordinates": [ -84.41544, 38.01949 ] } },
{ "type": "Feature", "properties": { "Name": "DONATO'S" }, "geometry": { "type": "Point", "coordinates": [ -84.42839, 38.00705 ] } },
{ "type": "Feature", "properties": { "Name": "ORANGE LEAF (BRIGHTON)" }, "geometry": { "type": "Point", "coordinates": [ -84.42153, 38.01073 ] } },
{ "type": "Feature", "properties": { "Name": "BARNES & NOBLE BOOKSELLERS" }, "geometry": { "type": "Point", "coordinates": [ -84.41702, 38.02148 ] } },
{ "type": "Feature", "properties": { "Name": "SUBWAY" }, "geometry": { "type": "Point", "coordinates": [ -84.41922, 38.0219 ] } },
{ "type": "Feature", "properties": { "Name": "DONATO'S PIZZA" }, "geometry": { "type": "Point", "coordinates": [ -84.47467, 38.06996 ] } },
{ "type": "Feature", "properties": { "Name": "MCDONALD'S RESTAURANT #23458" }, "geometry": { "type": "Point", "coordinates": [ -84.5266, 38.06689 ] } },
{ "type": "Feature", "properties": { "Name": "CHAO CAJUN #F-22" }, "geometry": { "type": "Point", "coordinates": [ -84.52797, 37.9892 ] } },
{ "type": "Feature", "properties": { "Name": "TACO BELL #20363" }, "geometry": { "type": "Point", "coordinates": [ -84.41487, 38.01983 ] } },
{ "type": "Feature", "properties": { "Name": "LEXINGTON ROOSTERS, LLC" }, "geometry": { "type": "Point", "coordinates": [ -84.53266, 37.97779 ] } },
{ "type": "Feature", "properties": { "Name": "ARBY'S #6911" }, "geometry": { "type": "Point", "coordinates": [ -84.4142, 38.01998 ] } },
{ "type": "Feature", "properties": { "Name": "PAPA JOHNS  # 18" }, "geometry": { "type": "Point", "coordinates": [ -84.49987, 38.03851 ] } },
{ "type": "Feature", "properties": { "Name": "KENTUCKY INDOOR SOCCER & SPORTS" }, "geometry": { "type": "Point", "coordinates": [ -84.53485, 37.99742 ] } },
{ "type": "Feature", "properties": { "Name": "PAPA JOHN'S PIZZA #1449" }, "geometry": { "type": "Point", "coordinates": [ -84.5275, 38.06611 ] } },
{ "type": "Feature", "properties": { "Name": "DOMINO'S" }, "geometry": { "type": "Point", "coordinates": [ -84.42153, 38.01073 ] } },
{ "type": "Feature", "properties": { "Name": "LITTLE CAESAR'S PIZZA" }, "geometry": { "type": "Point", "coordinates": [ -84.49635, 37.98305 ] } },
{ "type": "Feature", "properties": { "Name": "DAIRY QUEEN #309" }, "geometry": { "type": "Point", "coordinates": [ -84.51433, 38.03688 ] } },
{ "type": "Feature", "properties": { "Name": "C & J FOOD BAR" }, "geometry": { "type": "Point", "coordinates": [ -84.45937, 38.04543 ] } },
{ "type": "Feature", "properties": { "Name": "HAMBURG PAVILION STADIUM 16" }, "geometry": { "type": "Point", "coordinates": [ -84.42038, 38.02535 ] } },
{ "type": "Feature", "properties": { "Name": "MCDONALD'S" }, "geometry": { "type": "Point", "coordinates": [ -84.53012, 37.97743 ] } },
{ "type": "Feature", "properties": { "Name": "SUBWAY 52863" }, "geometry": { "type": "Point", "coordinates": [ -84.4984, 37.97118 ] } },
{ "type": "Feature", "properties": { "Name": "THE BRIDGE" }, "geometry": { "type": "Point", "coordinates": [ -84.48635, 38.01945 ] } },
{ "type": "Feature", "properties": { "Name": "DAIRY QUEEN" }, "geometry": { "type": "Point", "coordinates": [ -84.47971, 38.07164 ] } },
{ "type": "Feature", "properties": { "Name": "TORTILLERIA RAMIREZ" }, "geometry": { "type": "Point", "coordinates": [ -84.55252, 38.04842 ] } },
{ "type": "Feature", "properties": { "Name": "DOMINO'S PIZZA  #180" }, "geometry": { "type": "Point", "coordinates": [ -84.48188, 38.07064 ] } },
{ "type": "Feature", "properties": { "Name": "CHARLEY'S PHILLY STEAK" }, "geometry": { "type": "Point", "coordinates": [ -84.52782, 37.98848 ] } },
{ "type": "Feature", "properties": { "Name": "GIOVANNI'S OF NEW CIRCLE" }, "geometry": { "type": "Point", "coordinates": [ -84.46973, 38.06382 ] } },
{ "type": "Feature", "properties": { "Name": "SIR PIZZA" }, "geometry": { "type": "Point", "coordinates": [ -84.4786, 38.07229 ] } },
{ "type": "Feature", "properties": { "Name": "MCDONALD'S" }, "geometry": { "type": "Point", "coordinates": [ -84.4762, 38.0408 ] } },
{ "type": "Feature", "properties": { "Name": "SONIC 4301" }, "geometry": { "type": "Point", "coordinates": [ -84.46663, 38.06102 ] } },
{ "type": "Feature", "properties": { "Name": "JIMMY JOHN'S" }, "geometry": { "type": "Point", "coordinates": [ -84.42769, 38.00615 ] } },
{ "type": "Feature", "properties": { "Name": "PENN STATION" }, "geometry": { "type": "Point", "coordinates": [ -84.42469, 38.00894 ] } },
{ "type": "Feature", "properties": { "Name": "GOLD STAR" }, "geometry": { "type": "Point", "coordinates": [ -84.41552, 38.01834 ] } },
{ "type": "Feature", "properties": { "Name": "DONATO'S PIZZA" }, "geometry": { "type": "Point", "coordinates": [ -84.47954, 37.96065 ] } },
{ "type": "Feature", "properties": { "Name": "QDOBA MEXICAN GRILL #2080" }, "geometry": { "type": "Point", "coordinates": [ -84.45627, 38.00992 ] } },
{ "type": "Feature", "properties": { "Name": "PENN STATION" }, "geometry": { "type": "Point", "coordinates": [ -84.46882, 38.06996 ] } },
{ "type": "Feature", "properties": { "Name": "DOMINO'S PIZZA  #  1406" }, "geometry": { "type": "Point", "coordinates": [ -84.53066, 37.9803 ] } },
{ "type": "Feature", "properties": { "Name": "ST. JOSEPH HOSPITAL JAVA JOE'S" }, "geometry": { "type": "Point", "coordinates": [ -84.5237, 38.03249 ] } },
{ "type": "Feature", "properties": { "Name": "SUBWAY" }, "geometry": { "type": "Point", "coordinates": [ -84.49536, 38.04539 ] } },
{ "type": "Feature", "properties": { "Name": "WEST COAST GOURMET PIZZA" }, "geometry": { "type": "Point", "coordinates": [ -84.44705, 38.03246 ] } },
{ "type": "Feature", "properties": { "Name": "KY FRIED CHICKEN-PIZZA HUT" }, "geometry": { "type": "Point", "coordinates": [ -84.41611, 38.0191 ] } },
{ "type": "Feature", "properties": { "Name": "CHICK-FIL-A @ TURFLAND MALL" }, "geometry": { "type": "Point", "coordinates": [ -84.53692, 38.02599 ] } },
{ "type": "Feature", "properties": { "Name": "SUBWAY STORE #27479" }, "geometry": { "type": "Point", "coordinates": [ -84.47954, 37.96065 ] } },
{ "type": "Feature", "properties": { "Name": "PIZZA HUT # 2969" }, "geometry": { "type": "Point", "coordinates": [ -84.44948, 38.00295 ] } },
{ "type": "Feature", "properties": { "Name": "STARBUCKS COFFEE # 2608" }, "geometry": { "type": "Point", "coordinates": [ -84.49917, 38.04868 ] } },
{ "type": "Feature", "properties": { "Name": "PIZZA HUT #2972" }, "geometry": { "type": "Point", "coordinates": [ -84.50117, 37.96636 ] } },
{ "type": "Feature", "properties": { "Name": "STARBUCKS #2687" }, "geometry": { "type": "Point", "coordinates": [ -84.49029, 38.0307 ] } },
{ "type": "Feature", "properties": { "Name": "WEST COAST GOURMET PIZZA" }, "geometry": { "type": "Point", "coordinates": [ -84.49917, 38.04868 ] } },
{ "type": "Feature", "properties": { "Name": "CHICK-FIL-A" }, "geometry": { "type": "Point", "coordinates": [ -84.4187, 38.0169 ] } },
{ "type": "Feature", "properties": { "Name": "SOUL FRIED" }, "geometry": { "type": "Point", "coordinates": [ -84.486, 38.05384 ] } },
{ "type": "Feature", "properties": { "Name": "SUBWAY SOUTHLAND" }, "geometry": { "type": "Point", "coordinates": [ -84.52608, 38.0168 ] } },
{ "type": "Feature", "properties": { "Name": "CHIPOTLE MEXICAN GRILL OF CO" }, "geometry": { "type": "Point", "coordinates": [ -84.5027, 38.04272 ] } },
{ "type": "Feature", "properties": { "Name": "CHIPOTLE MEXICAN GRILL #572" }, "geometry": { "type": "Point", "coordinates": [ -84.44937, 38.0053 ] } },
{ "type": "Feature", "properties": { "Name": "SUBWAY" }, "geometry": { "type": "Point", "coordinates": [ -84.48074, 37.99716 ] } },
{ "type": "Feature", "properties": { "Name": "AUNTIE ANNE'S  PRETZELS" }, "geometry": { "type": "Point", "coordinates": [ -84.52842, 37.98844 ] } },
{ "type": "Feature", "properties": { "Name": "SUBWAY" }, "geometry": { "type": "Point", "coordinates": [ -84.54558, 37.9954 ] } },
{ "type": "Feature", "properties": { "Name": "NUTRIMAX SMOOTHIES" }, "geometry": { "type": "Point", "coordinates": [ -84.43507, 38.00865 ] } },
{ "type": "Feature", "properties": { "Name": "CHIPOTLE MEXICAN GRILL OF CO" }, "geometry": { "type": "Point", "coordinates": [ -84.41837, 38.01722 ] } },
{ "type": "Feature", "properties": { "Name": "THIRD STREET STUFF COFFEE" }, "geometry": { "type": "Point", "coordinates": [ -84.49299, 38.0494 ] } },
{ "type": "Feature", "properties": { "Name": "STARBUCKS COFFEE #8734" }, "geometry": { "type": "Point", "coordinates": [ -84.41837, 38.01722 ] } },
{ "type": "Feature", "properties": { "Name": "STARBUCKS COFFEE #7931" }, "geometry": { "type": "Point", "coordinates": [ -84.45357, 38.00907 ] } },
{ "type": "Feature", "properties": { "Name": "STARBUCKS @ KY CLINIC" }, "geometry": { "type": "Point", "coordinates": [ -84.50714, 38.03262 ] } },
{ "type": "Feature", "properties": { "Name": "SUBWAY #17552 @ WAL-MART" }, "geometry": { "type": "Point", "coordinates": [ -84.48092, 38.07045 ] } },
{ "type": "Feature", "properties": { "Name": "SUBWAY #34835" }, "geometry": { "type": "Point", "coordinates": [ -84.48651, 38.03666 ] } },
{ "type": "Feature", "properties": { "Name": "COLD STONE CREAMERY #1869" }, "geometry": { "type": "Point", "coordinates": [ -84.42391, 38.02379 ] } },
{ "type": "Feature", "properties": { "Name": "SUBWAY #36137 @WAL-MART" }, "geometry": { "type": "Point", "coordinates": [ -84.5309, 37.9794 ] } },
{ "type": "Feature", "properties": { "Name": "LITTLE CAESAR'S PIZZA" }, "geometry": { "type": "Point", "coordinates": [ -84.4685, 38.06434 ] } },
{ "type": "Feature", "properties": { "Name": "CINEMARK USA, INC. (FAYETTE MALL)" }, "geometry": { "type": "Point", "coordinates": [ -84.53059, 37.98361 ] } },
{ "type": "Feature", "properties": { "Name": "STARBUCKS COFFEE #10075" }, "geometry": { "type": "Point", "coordinates": [ -84.55127, 37.9814 ] } },
{ "type": "Feature", "properties": { "Name": "JET'S PIZZA KY 10" }, "geometry": { "type": "Point", "coordinates": [ -84.51591, 38.03668 ] } },
{ "type": "Feature", "properties": { "Name": "WENDY'S" }, "geometry": { "type": "Point", "coordinates": [ -84.52986, 38.06896 ] } },
{ "type": "Feature", "properties": { "Name": "ORIGINAL BROOKLYN PIZZA, THE" }, "geometry": { "type": "Point", "coordinates": [ -84.54542, 37.99529 ] } },
{ "type": "Feature", "properties": { "Name": "STARBUCKS #9983" }, "geometry": { "type": "Point", "coordinates": [ -84.51425, 38.03906 ] } },
{ "type": "Feature", "properties": { "Name": "EDIBLE ARRANGEMENTS" }, "geometry": { "type": "Point", "coordinates": [ -84.44417, 38.00271 ] } },
{ "type": "Feature", "properties": { "Name": "RICHIE'S RESTAURANT" }, "geometry": { "type": "Point", "coordinates": [ -84.50405, 38.068 ] } },
{ "type": "Feature", "properties": { "Name": "WENDY'S" }, "geometry": { "type": "Point", "coordinates": [ -84.3904, 37.96427 ] } },
{ "type": "Feature", "properties": { "Name": "STARBUCKS COFFEE #10374" }, "geometry": { "type": "Point", "coordinates": [ -84.52076, 37.99788 ] } },
{ "type": "Feature", "properties": { "Name": "CULVER'S RESTAURANT" }, "geometry": { "type": "Point", "coordinates": [ -84.53152, 37.99432 ] } },
{ "type": "Feature", "properties": { "Name": "CULVER'S RESTAURANT" }, "geometry": { "type": "Point", "coordinates": [ -84.42157, 38.02067 ] } },
{ "type": "Feature", "properties": { "Name": "SPALDINGS BAKERY" }, "geometry": { "type": "Point", "coordinates": [ -84.47753, 38.04084 ] } },
{ "type": "Feature", "properties": { "Name": "TACO BELL #23156" }, "geometry": { "type": "Point", "coordinates": [ -84.53023, 38.06922 ] } },
{ "type": "Feature", "properties": { "Name": "SUBWAY DELI" }, "geometry": { "type": "Point", "coordinates": [ -84.51788, 38.00379 ] } },
{ "type": "Feature", "properties": { "Name": "ONE WORLD ICE CREAM" }, "geometry": { "type": "Point", "coordinates": [ -84.5207, 38.03175 ] } },
{ "type": "Feature", "properties": { "Name": "STARBUCKS #10829" }, "geometry": { "type": "Point", "coordinates": [ -84.52782, 37.98848 ] } },
{ "type": "Feature", "properties": { "Name": "STARBUCKS COFFEE COMPANY #10689" }, "geometry": { "type": "Point", "coordinates": [ -84.55477, 38.04611 ] } },
{ "type": "Feature", "properties": { "Name": "STARBUCKS @ WT YOUNG LIBRARY" }, "geometry": { "type": "Point", "coordinates": [ -84.50137, 38.03257 ] } },
{ "type": "Feature", "properties": { "Name": "SAM'S HOT DOGS STAND" }, "geometry": { "type": "Point", "coordinates": [ -84.49688, 38.04663 ] } },
{ "type": "Feature", "properties": { "Name": "CHAMPS SKATE CENTER" }, "geometry": { "type": "Point", "coordinates": [ -84.53344, 37.99808 ] } },
{ "type": "Feature", "properties": { "Name": "MOE'S SOUTHWESTERN GRILL" }, "geometry": { "type": "Point", "coordinates": [ -84.53012, 37.98493 ] } },
{ "type": "Feature", "properties": { "Name": "MARCO'S PIZZA #1226" }, "geometry": { "type": "Point", "coordinates": [ -84.51853, 38.00448 ] } },
{ "type": "Feature", "properties": { "Name": "SKY 22\/AUNTIE ANN'S" }, "geometry": { "type": "Point", "coordinates": [ -84.42224, 38.0378 ] } },
{ "type": "Feature", "properties": { "Name": "CARAMANDA'S BAKE SHOP" }, "geometry": { "type": "Point", "coordinates": [ -84.52571, 38.01673 ] } },
{ "type": "Feature", "properties": { "Name": "CHICK-FIL-A AT RICHMOND RD & NEW CIRCLE" }, "geometry": { "type": "Point", "coordinates": [ -84.46243, 38.01682 ] } },
{ "type": "Feature", "properties": { "Name": "JAMBA JUICE" }, "geometry": { "type": "Point", "coordinates": [ -84.50524, 38.04224 ] } },
{ "type": "Feature", "properties": { "Name": "ZAXBY'S" }, "geometry": { "type": "Point", "coordinates": [ -84.53072, 38.0692 ] } },
{ "type": "Feature", "properties": { "Name": "SONIC 5852" }, "geometry": { "type": "Point", "coordinates": [ -84.45474, 38.01054 ] } },
{ "type": "Feature", "properties": { "Name": "RAISING CANE'S CHICKEN FINGERS" }, "geometry": { "type": "Point", "coordinates": [ -84.50415, 38.04244 ] } },
{ "type": "Feature", "properties": { "Name": "RAISING CANE'S CHICKEN FINGERS" }, "geometry": { "type": "Point", "coordinates": [ -84.42821, 38.0403 ] } },
{ "type": "Feature", "properties": { "Name": "MOD SUPERFAST PIZZA" }, "geometry": { "type": "Point", "coordinates": [ -84.42818, 38.0408 ] } },
{ "type": "Feature", "properties": { "Name": "STARBUCKS #14259" }, "geometry": { "type": "Point", "coordinates": [ -84.42418, 38.04074 ] } },
{ "type": "Feature", "properties": { "Name": "LITTLE CAESAR'S PIZZA" }, "geometry": { "type": "Point", "coordinates": [ -84.55133, 37.98121 ] } },
{ "type": "Feature", "properties": { "Name": "COMMON GROUNDS" }, "geometry": { "type": "Point", "coordinates": [ -84.47998, 37.96066 ] } },
{ "type": "Feature", "properties": { "Name": "CHICK-FIL-A" }, "geometry": { "type": "Point", "coordinates": [ -84.52021, 37.99949 ] } },
{ "type": "Feature", "properties": { "Name": "QDOBA MEXICAN GRILL #2524" }, "geometry": { "type": "Point", "coordinates": [ -84.57242, 38.00477 ] } },
{ "type": "Feature", "properties": { "Name": "ZAXBY'S" }, "geometry": { "type": "Point", "coordinates": [ -84.48131, 38.07304 ] } },
{ "type": "Feature", "properties": { "Name": "ZAXBY'S" }, "geometry": { "type": "Point", "coordinates": [ -84.44455, 37.99907 ] } },
{ "type": "Feature", "properties": { "Name": "BURGER KING #17304" }, "geometry": { "type": "Point", "coordinates": [ -84.45768, 38.0112 ] } },
{ "type": "Feature", "properties": { "Name": "TINKER'S CAKE SHOP" }, "geometry": { "type": "Point", "coordinates": [ -84.50356, 38.04565 ] } },
{ "type": "Feature", "properties": { "Name": "GIGI'S CUPCAKES" }, "geometry": { "type": "Point", "coordinates": [ -84.45357, 38.00907 ] } },
{ "type": "Feature", "properties": { "Name": "BIG CITY PIZZA" }, "geometry": { "type": "Point", "coordinates": [ -84.47901, 37.99726 ] } },
{ "type": "Feature", "properties": { "Name": "PAQUITOS ICE CREAM" }, "geometry": { "type": "Point", "coordinates": [ -84.55199, 38.04895 ] } },
{ "type": "Feature", "properties": { "Name": "SWEET STOP, THE" }, "geometry": { "type": "Point", "coordinates": [ -84.52782, 37.98848 ] } },
{ "type": "Feature", "properties": { "Name": "MARCO'S PIZZA #1172" }, "geometry": { "type": "Point", "coordinates": [ -84.4466, 38.00437 ] } },
{ "type": "Feature", "properties": { "Name": "WING ZONE" }, "geometry": { "type": "Point", "coordinates": [ -84.52442, 38.01685 ] } },
{ "type": "Feature", "properties": { "Name": "ORANGE LEAF - SELF SERVE FROZE" }, "geometry": { "type": "Point", "coordinates": [ -84.53291, 37.98094 ] } },
{ "type": "Feature", "properties": { "Name": "DAD'S FAVORITES" }, "geometry": { "type": "Point", "coordinates": [ -84.54065, 38.0281 ] } },
{ "type": "Feature", "properties": { "Name": "MAD MUSHROOM OF CLAYS MILL INC" }, "geometry": { "type": "Point", "coordinates": [ -84.54806, 37.99599 ] } },
{ "type": "Feature", "properties": { "Name": "WING ZONE" }, "geometry": { "type": "Point", "coordinates": [ -84.45685, 37.9966 ] } },
{ "type": "Feature", "properties": { "Name": "PANDA EXPRESS #2113" }, "geometry": { "type": "Point", "coordinates": [ -84.52027, 38.00236 ] } },
{ "type": "Feature", "properties": { "Name": "JIMMY JOHN'S" }, "geometry": { "type": "Point", "coordinates": [ -84.57254, 38.00494 ] } },
{ "type": "Feature", "properties": { "Name": "TROPICAL SMOOTHIE CAFE'" }, "geometry": { "type": "Point", "coordinates": [ -84.56071, 38.02169 ] } },
{ "type": "Feature", "properties": { "Name": "CHOCOLATE HOLLER" }, "geometry": { "type": "Point", "coordinates": [ -84.4926, 38.04017 ] } },
{ "type": "Feature", "properties": { "Name": "NAT'S" }, "geometry": { "type": "Point", "coordinates": [ -84.49845, 38.04693 ] } },
{ "type": "Feature", "properties": { "Name": "TOLLY HO RESTAURANT" }, "geometry": { "type": "Point", "coordinates": [ -84.50727, 38.04316 ] } },
{ "type": "Feature", "properties": { "Name": "JET'S PIZZA" }, "geometry": { "type": "Point", "coordinates": [ -84.57503, 38.00264 ] } },
{ "type": "Feature", "properties": { "Name": "FIREHOUSE SUBS" }, "geometry": { "type": "Point", "coordinates": [ -84.53111, 38.06809 ] } },
{ "type": "Feature", "properties": { "Name": "JIMMY JOHN'S" }, "geometry": { "type": "Point", "coordinates": [ -84.52146, 38.00052 ] } },
{ "type": "Feature", "properties": { "Name": "GRAETER'S ICE CREAM" }, "geometry": { "type": "Point", "coordinates": [ -84.49087, 38.02944 ] } },
{ "type": "Feature", "properties": { "Name": "FIVE GUYS BURGERS & FRIES" }, "geometry": { "type": "Point", "coordinates": [ -84.42153, 38.01073 ] } },
{ "type": "Feature", "properties": { "Name": "PAPA MURPHY'S" }, "geometry": { "type": "Point", "coordinates": [ -84.42436, 38.02401 ] } },
{ "type": "Feature", "properties": { "Name": "DRAGON BALL ICE CREAM" }, "geometry": { "type": "Point", "coordinates": [ -84.52782, 37.98848 ] } },
{ "type": "Feature", "properties": { "Name": "NORTH LIME COFFEE AND DONUTS" }, "geometry": { "type": "Point", "coordinates": [ -84.48659, 38.05392 ] } },
{ "type": "Feature", "properties": { "Name": "BASKIN ROBBINS" }, "geometry": { "type": "Point", "coordinates": [ -84.55667, 38.01447 ] } },
{ "type": "Feature", "properties": { "Name": "BURGERFI" }, "geometry": { "type": "Point", "coordinates": [ -84.53012, 37.98493 ] } },
{ "type": "Feature", "properties": { "Name": "GRAETER'S ICE CREAM" }, "geometry": { "type": "Point", "coordinates": [ -84.41308, 38.01767 ] } },
{ "type": "Feature", "properties": { "Name": "KY HORSE PARK ALLTECH #5" }, "geometry": { "type": "Point", "coordinates": [ -84.52329, 38.15788 ] } },
{ "type": "Feature", "properties": { "Name": "CAFE PADDOCK \/ KY HORSE PARK" }, "geometry": { "type": "Point", "coordinates": [ -84.52066, 38.14991 ] } },
{ "type": "Feature", "properties": { "Name": "GOLD STAR CHILI" }, "geometry": { "type": "Point", "coordinates": [ -84.5725, 38.00484 ] } },
{ "type": "Feature", "properties": { "Name": "JIMMY JOHN'S" }, "geometry": { "type": "Point", "coordinates": [ -84.49518, 38.03371 ] } },
{ "type": "Feature", "properties": { "Name": "MISSY'S PIE SHOP" }, "geometry": { "type": "Point", "coordinates": [ -84.49294, 38.03646 ] } },
{ "type": "Feature", "properties": { "Name": "CHERRY SEED COFFEE HOUSE" }, "geometry": { "type": "Point", "coordinates": [ -84.52868, 38.01987 ] } },
{ "type": "Feature", "properties": { "Name": "SWEET SPOT, THE" }, "geometry": { "type": "Point", "coordinates": [ -84.49923, 38.04922 ] } },
{ "type": "Feature", "properties": { "Name": "JET'S PIZZA" }, "geometry": { "type": "Point", "coordinates": [ -84.44512, 37.99943 ] } },
{ "type": "Feature", "properties": { "Name": "A&W BURGERS, CHICKEN & FLOATS" }, "geometry": { "type": "Point", "coordinates": [ -84.42633, 38.04092 ] } },
{ "type": "Feature", "properties": { "Name": "EIFFEL PIZZA" }, "geometry": { "type": "Point", "coordinates": [ -84.45849, 37.97655 ] } },
{ "type": "Feature", "properties": { "Name": "FIREHOUSE SUBS" }, "geometry": { "type": "Point", "coordinates": [ -84.44512, 37.99943 ] } },
{ "type": "Feature", "properties": { "Name": "SUBWAY - SOUTH PAVILION" }, "geometry": { "type": "Point", "coordinates": [ -84.53295, 37.98321 ] } },
{ "type": "Feature", "properties": { "Name": "CONFUSED CONFECTIONS" }, "geometry": { "type": "Point", "coordinates": [ -84.48622, 38.03593 ] } },
{ "type": "Feature", "properties": { "Name": "MCDONALD'S RESTAURANT #36629" }, "geometry": { "type": "Point", "coordinates": [ -84.46144, 38.0162 ] } },
{ "type": "Feature", "properties": { "Name": "SUPER MARIO'S ICE CREAM" }, "geometry": { "type": "Point", "coordinates": [ -84.46415, 38.05837 ] } },
{ "type": "Feature", "properties": { "Name": "KLAIR II" }, "geometry": { "type": "Point", "coordinates": [ -84.50372, 38.03279 ] } },
{ "type": "Feature", "properties": { "Name": "EINSTEIN'S BAGELS" }, "geometry": { "type": "Point", "coordinates": [ -84.50396, 38.03571 ] } },
{ "type": "Feature", "properties": { "Name": "SUBWAY - MI KING" }, "geometry": { "type": "Point", "coordinates": [ -84.50523, 38.03585 ] } },
{ "type": "Feature", "properties": { "Name": "MCDONALD'S" }, "geometry": { "type": "Point", "coordinates": [ -84.53561, 38.02568 ] } },
{ "type": "Feature", "properties": { "Name": "KLAIR II COMMISSARY" }, "geometry": { "type": "Point", "coordinates": [ -84.50372, 38.03279 ] } },
{ "type": "Feature", "properties": { "Name": "MAD MUSHROOM OF UK" }, "geometry": { "type": "Point", "coordinates": [ -84.50739, 38.04469 ] } },
{ "type": "Feature", "properties": { "Name": "A&W BURGERS-CHICKEN-FLOATS" }, "geometry": { "type": "Point", "coordinates": [ -84.52973, 38.0675 ] } },
{ "type": "Feature", "properties": { "Name": "DOMINO'S PIZZA #1405" }, "geometry": { "type": "Point", "coordinates": [ -84.46132, 37.98465 ] } },
{ "type": "Feature", "properties": { "Name": "CHIPOTLE MEXICAN GRILL #2429" }, "geometry": { "type": "Point", "coordinates": [ -84.5276, 37.9876 ] } },
{ "type": "Feature", "properties": { "Name": "BURGER KING #20867" }, "geometry": { "type": "Point", "coordinates": [ -84.53639, 38.02708 ] } },
{ "type": "Feature", "properties": { "Name": "LITTLE CAESAR'S" }, "geometry": { "type": "Point", "coordinates": [ -84.44456, 38.00382 ] } },
{ "type": "Feature", "properties": { "Name": "HIGH ON ART & COFFEE, LLC" }, "geometry": { "type": "Point", "coordinates": [ -84.49238, 38.03605 ] } },
{ "type": "Feature", "properties": { "Name": "BRUSTER'S REAL ICE CREAM" }, "geometry": { "type": "Point", "coordinates": [ -84.52951, 37.99575 ] } },
{ "type": "Feature", "properties": { "Name": "JIMMY JOHN'S" }, "geometry": { "type": "Point", "coordinates": [ -84.53066, 37.9803 ] } },
{ "type": "Feature", "properties": { "Name": "CRANK & BOOM ICE CREAM LOUNGE" }, "geometry": { "type": "Point", "coordinates": [ -84.51935, 38.05653 ] } },
{ "type": "Feature", "properties": { "Name": "EL MANGO NIEVERIA & SNACKS" }, "geometry": { "type": "Point", "coordinates": [ -84.54855, 38.04853 ] } },
{ "type": "Feature", "properties": { "Name": "WILD FIG BOOKS & COFFEE" }, "geometry": { "type": "Point", "coordinates": [ -84.48331, 38.05578 ] } },
{ "type": "Feature", "properties": { "Name": "ZAXBY'S" }, "geometry": { "type": "Point", "coordinates": [ -84.49576, 37.98356 ] } },
{ "type": "Feature", "properties": { "Name": "TACO BELL" }, "geometry": { "type": "Point", "coordinates": [ -84.50198, 38.03133 ] } },
{ "type": "Feature", "properties": { "Name": "PIE FIVE" }, "geometry": { "type": "Point", "coordinates": [ -84.52782, 37.98848 ] } },
{ "type": "Feature", "properties": { "Name": "SORELLA GELATERIA" }, "geometry": { "type": "Point", "coordinates": [ -84.49407, 38.04873 ] } },
{ "type": "Feature", "properties": { "Name": "HONNAH-LEE BUBBLE TEA" }, "geometry": { "type": "Point", "coordinates": [ -84.53433, 38.02719 ] } },
{ "type": "Feature", "properties": { "Name": "THE LOGE" }, "geometry": { "type": "Point", "coordinates": [ -84.50624, 38.02328 ] } },
{ "type": "Feature", "properties": { "Name": "PAPA MURPHY'S" }, "geometry": { "type": "Point", "coordinates": [ -84.55772, 38.02267 ] } },
{ "type": "Feature", "properties": { "Name": "POPEYES LOUISIANA KITCHEN" }, "geometry": { "type": "Point", "coordinates": [ -84.46934, 38.06518 ] } },
{ "type": "Feature", "properties": { "Name": "JERSEY MIKES SUBS" }, "geometry": { "type": "Point", "coordinates": [ -84.5148, 38.03972 ] } },
{ "type": "Feature", "properties": { "Name": "PIE FIVE" }, "geometry": { "type": "Point", "coordinates": [ -84.5148, 38.03972 ] } },
{ "type": "Feature", "properties": { "Name": "COLD STONE CREAMERY" }, "geometry": { "type": "Point", "coordinates": [ -84.53188, 37.98539 ] } },
{ "type": "Feature", "properties": { "Name": "RAISING CANE'S" }, "geometry": { "type": "Point", "coordinates": [ -84.53604, 38.02535 ] } },
{ "type": "Feature", "properties": { "Name": "PANCHITOS ICE CREAM #2" }, "geometry": { "type": "Point", "coordinates": [ -84.47866, 38.07296 ] } },
{ "type": "Feature", "properties": { "Name": "JIMMY JOHN'S" }, "geometry": { "type": "Point", "coordinates": [ -84.52046, 38.03149 ] } },
{ "type": "Feature", "properties": { "Name": "STARBUCKS COFFEE #27458" }, "geometry": { "type": "Point", "coordinates": [ -84.49894, 37.97479 ] } },
{ "type": "Feature", "properties": { "Name": "NORTH SIDE COFFEE AND DOUGHNUTS, LLC" }, "geometry": { "type": "Point", "coordinates": [ -84.48666, 38.05398 ] } },
{ "type": "Feature", "properties": { "Name": "STEAK N SHAKE" }, "geometry": { "type": "Point", "coordinates": [ -84.50335, 38.04145 ] } },
{ "type": "Feature", "properties": { "Name": "NOTHING BUNDT CAKES" }, "geometry": { "type": "Point", "coordinates": [ -84.51788, 38.00379 ] } },
{ "type": "Feature", "properties": { "Name": "GOODFELLAS PIZZERIA" }, "geometry": { "type": "Point", "coordinates": [ -84.5203, 38.05666 ] } },
{ "type": "Feature", "properties": { "Name": "ZAXBY'S" }, "geometry": { "type": "Point", "coordinates": [ -84.51925, 38.03686 ] } },
{ "type": "Feature", "properties": { "Name": "METROPOLITAN DONUTS & COFFEE" }, "geometry": { "type": "Point", "coordinates": [ -84.5551, 38.01649 ] } },
{ "type": "Feature", "properties": { "Name": "FREDDY'S FROZEN CUSTARD" }, "geometry": { "type": "Point", "coordinates": [ -84.40916, 38.02677 ] } },
{ "type": "Feature", "properties": { "Name": "DOMINO'S 1359" }, "geometry": { "type": "Point", "coordinates": [ -84.5305, 38.06761 ] } },
{ "type": "Feature", "properties": { "Name": "STARBUCKS" }, "geometry": { "type": "Point", "coordinates": [ -84.52799, 37.97823 ] } },
{ "type": "Feature", "properties": { "Name": "SHAKE SHACK" }, "geometry": { "type": "Point", "coordinates": [ -84.52609, 37.977 ] } },
{ "type": "Feature", "properties": { "Name": "BLAZE PIZZA" }, "geometry": { "type": "Point", "coordinates": [ -84.52799, 37.97823 ] } },
{ "type": "Feature", "properties": { "Name": "MOD PIZZA" }, "geometry": { "type": "Point", "coordinates": [ -84.4984, 37.97118 ] } },
{ "type": "Feature", "properties": { "Name": "CRANK & BOOM" }, "geometry": { "type": "Point", "coordinates": [ -84.52717, 37.97704 ] } },
{ "type": "Feature", "properties": { "Name": "JIMMY JOHN'S" }, "geometry": { "type": "Point", "coordinates": [ -84.49645, 37.98402 ] } },
{ "type": "Feature", "properties": { "Name": "JERSEY MIKE'S SUBS" }, "geometry": { "type": "Point", "coordinates": [ -84.42639, 38.03991 ] } },
{ "type": "Feature", "properties": { "Name": "HONNAH-LEE BUBBLE TEA" }, "geometry": { "type": "Point", "coordinates": [ -84.49115, 38.02987 ] } },
{ "type": "Feature", "properties": { "Name": "PIZZA HUT #2967" }, "geometry": { "type": "Point", "coordinates": [ -84.46197, 38.05975 ] } },
{ "type": "Feature", "properties": { "Name": "ADELINE'S CAKE ARTISTRY" }, "geometry": { "type": "Point", "coordinates": [ -84.48137, 38.05637 ] } },
{ "type": "Feature", "properties": { "Name": "MCDONALD'S" }, "geometry": { "type": "Point", "coordinates": [ -84.46027, 37.98557 ] } },
{ "type": "Feature", "properties": { "Name": "JIMMY JOHN'S" }, "geometry": { "type": "Point", "coordinates": [ -84.49881, 38.04833 ] } },
{ "type": "Feature", "properties": { "Name": "DAILY OFFERINGS COFFEE ROASTERY & CAFE" }, "geometry": { "type": "Point", "coordinates": [ -84.51829, 38.00235 ] } },
{ "type": "Feature", "properties": { "Name": "MOE'S SOUTHWEST GRILL" }, "geometry": { "type": "Point", "coordinates": [ -84.53401, 38.02737 ] } },
{ "type": "Feature", "properties": { "Name": "HABIBI SWEETS AND BAKERY" }, "geometry": { "type": "Point", "coordinates": [ -84.52037, 38.00285 ] } },
{ "type": "Feature", "properties": { "Name": "UK BOOKSTORE, BARNES & NOBLE COLLEGE BOOKSELLERS" }, "geometry": { "type": "Point", "coordinates": [ -84.50297, 38.03982 ] } },
{ "type": "Feature", "properties": { "Name": "POPCORN PARADISE" }, "geometry": { "type": "Point", "coordinates": [ -84.47893, 38.04005 ] } },
{ "type": "Feature", "properties": { "Name": "MAKE A CAKE CUPCAKE BAR" }, "geometry": { "type": "Point", "coordinates": [ -84.47899, 38.03961 ] } },
{ "type": "Feature", "properties": { "Name": "JERSEY MIKES SUBS\/ RR LEX, LLC" }, "geometry": { "type": "Point", "coordinates": [ -84.44973, 38.0057 ] } },
{ "type": "Feature", "properties": { "Name": "MACY'S STARBUCKS KIOSK-FAYETTE MALL" }, "geometry": { "type": "Point", "coordinates": [ -84.52378, 37.99101 ] } },
{ "type": "Feature", "properties": { "Name": "GRIME'S" }, "geometry": { "type": "Point", "coordinates": [ -84.50131, 37.96629 ] } },
{ "type": "Feature", "properties": { "Name": "GUS'S WORLD FAMOUS FRIED CHICKEN" }, "geometry": { "type": "Point", "coordinates": [ -84.49246, 38.04155 ] } },
{ "type": "Feature", "properties": { "Name": "RALLY'S" }, "geometry": { "type": "Point", "coordinates": [ -84.50181, 37.96902 ] } },
{ "type": "Feature", "properties": { "Name": "Fazoli's" }, "geometry": { "type": "Point", "coordinates": [ -84.57319, 38.00582 ] } },
{ "type": "Feature", "properties": { "Name": "Sonic" }, "geometry": { "type": "Point", "coordinates": [ -84.59104, 37.98445 ] } },
{ "type": "Feature", "properties": { "Name": "Marcos Pizza" }, "geometry": { "type": "Point", "coordinates": [ -84.59081, 37.98388 ] } },
{ "type": "Feature", "properties": { "Name": "Papa John's" }, "geometry": { "type": "Point", "coordinates": [ -84.5017, 38.03112 ] } }
]
}
